{
  "users": [{"name":"권화영","store":"에스바디핏 포천점","address":"경기 포천시 소흘읍 솔모루로 18-1 금오빌딩 5층 에스바디핏포천점","lat":37.8243333,"lng":127.1427828},
    {"name":"심다래","store":"필라테스 뮤트","address":"강원도 강릉시 솔올로66 4층","lat":37.7659683,"lng":128.8781619},
    {"name":"진보름","store":"배움 필라테스","address":"서울 성동구 고산자로 160 대림강변타운 상가B동 201호","lat":37.5534327,"lng":127.0356605},
    {"name":"고유진","store":"","address":"서울시 구로구 부일로9길 127 106-602","lat":37.4967367,"lng":126.8209912},
    {"name":"하예지","store":"","address":"경북 포항 장량로139번길26-6","lat":36.0841924,"lng":129.3956759},
    {"name":"양상진","store":"필라테스 진","address":"경기도 이천시 창전동 449-16 2층 필라테스진","lat":37.2836605,"lng":127.4479134},
    {"name":"이건호","store":"바디이룸","address":"세종시 대평로 75, 207호","lat":36.4736879,"lng":127.276795},
    {"name":"김아영","store":"골든케어필라테스","address":"경북 구미시 인동중앙로 11길 20 유벤스빌딩 4층 골든케어필라테스","lat":36.1088717,"lng":128.4187024},
    {"name":"서정원","store":"","address":"경남 김해시 장유동 율하5로11 시티프라디움 107-1201","lat":35.105343,"lng":128.755695},
    {"name":"이세빈","store":"","address":"경기도 화성시 동탄환대로 20길 45 금강4차 2125동 702호","lat":37.2098027,"lng":127.0587938},
    {"name":"정은진","store":"라비앙 필라테스","address":"세종시 다정중앙로 57, 503호","lat":36.4956118,"lng":127.248512},
    {"name":"정주희","store":"코코필라테스","address":"광주광역시 광산구 신창동 부영아파트2차 210동 902호","lat":35.192597,"lng":126.834102},
    {"name":"노예진","store":"","address":"경기 화성시 동탄지성로333 107-1303","lat":37.2226171,"lng":127.0487203},
    {"name":"신은주","store":"쉬즈홈케어","address":"울산시 남구 삼산동 1541-1승정빌딩4층","lat":35.5445543,"lng":129.3402106},
    {"name":"김이슬","store":"원썸필라테스","address":"경북 경주시 유림로 23, 황성 스위첸 상가 2층 윈썸필라테스","lat":35.8703618,"lng":129.2164661},
    {"name":"이소담","store":"","address":"경기도 남양주시 진건읍 진건오남로 105번길 24-5번길 24-5 현대아파트 104동 1101호","lat":37.6607574,"lng":127.1755047},
    {"name":"김수정","store":"바비필라테스","address":"경남 거제시 아주 1로 2길 49, 2층 바비필라테스","lat":34.8668119,"lng":128.6866053},
    {"name":"이기욱","store":"이엠핏&필라테스","address":"서울시 강남구 선릉로 340, 9층 이엠핏&필라테스","lat":37.5001824,"lng":127.0514293},
    {"name":"정미현","store":"","address":"울산광역시 돋질로 261번길 32 103동 1301호","lat":35.5458119,"lng":129.3332784},
    {"name":"이가희","store":"","address":"서울시 강남구 대치동 934-15, 302호","lat":37.4985801,"lng":127.0570205},
    {"name":"이서원","store":"케어필라테스 침산점","address":"대구 북구 침산남로 165 라온스퀘어4층 케어필라테스침산점","lat":35.8879195,"lng":128.5937725},
    {"name":"신하서","store":"","address":"광주광역시 북구 운암산길 48 106동 2203호","lat":35.1798745,"lng":126.8781483},
    {"name":"박민정","store":"샵필라리나","address":"경기도 고양시 일산동구 장항동770 503호","lat":37.6598694,"lng":126.7700786},
    {"name":"서주현","store":"포렛필라테스","address":"강원도 춘천시 안마산로 89, 세종캐슬 4층 포렛필라테스","lat":37.8555988,"lng":127.7257365},
    {"name":"최진아","store":"마인드풀니스 운동센터","address":"경남 김해시 내외로 95번길 7, 노블레스빌딩 8층 마인드풀니스운동센터","lat":35.2351856,"lng":128.8675768},
    {"name":"이가영","store":"","address":"경남 김해시 가야로451번길9 롯데캐슬 102동 304호","lat":35.2421365,"lng":128.8844702},
    {"name":"임영화","store":"본필라테스","address":"서울시 금천구 벚꽃로30, 204동 1101호","lat":37.4753403,"lng":126.8859359},
    {"name":"최수빈","store":"","address":"충남 천안시 동남구 봉명4길 29 봉서산아이파크 102동 2203호","lat":36.8062683,"lng":127.1372209},
    {"name":"김혜림","store":"필라테스 올바른","address":"경기도 시흥시 서울대학로 278번길 61 서영베니스퀘어 t동 4층 447호","lat":37.3798877,"lng":126.8031025},
    {"name":"송선민","store":"","address":"경기도 시흥시 서울대학로 278번길 61 서영베니스 스퀘어 T동 447호","lat":37.3681573,"lng":126.7303942},
    {"name":"이하나","store":"비피 필라테스 대청점","address":"서울 강남구 일원로 47 2층 비피필라테스 대청점","lat":37.4897196,"lng":127.0815605},
    {"name":"심재연","store":"심앤유 필라테스","address":"서울 강남구 세곡동600. 2층 심앤유필라테스","lat":37.4692712,"lng":127.1073203},
    {"name":"하은정","store":"바디세움","address":"경기 화성시 병점동 494-1 양우내안애아파트 104돝 1102호","lat":37.2011071,"lng":127.0406836},
    {"name":"진나라","store":"더제이필라테스","address":"경기도 용인시 기흥구 서그내로 16번길 30 영통로효성해링턴플레이스 105동 1604호","lat":37.2448481,"lng":127.070907},
    {"name":"김수지","store":"필라테스 한결","address":"인천광역시 남동구 소래역남로16번길 75, 2층 202-2호(논현동, 에코메트로3차더타워상가)","lat":37.400963,"lng":126.733533},
    {"name":"이은영","store":"바디모어 필라테스","address":"경상남도 김해시 율하2로97번길 22, 2층 204호(율하동, 월드프라자)","lat":35.1710484,"lng":128.812747},
    {"name":"박규남","store":"비커스랩","address":"서울시 강남구 언주로537 B01","lat":37.5058792,"lng":127.040653},
    {"name":"김소영","store":"쏘 필라테스","address":"경기도 화성시 동탄반석로 172, 동탄파라곤 제지층 제비23호(반송동)","lat":37.203844,"lng":127.0721656},
    {"name":"김슬기","store":"몬드필라테스","address":"경기도 파주시 미래로 377, 5층 503,504호(동패동, 운정스퀘어)","lat":37.7197184,"lng":126.7471827},
    {"name":"박지현","store":"루나지움","address":"부산광역시 연제구 중앙대로1075번길 8, 607호(연산동, 타임빌)","lat":35.1843838,"lng":129.0796225},
    {"name":"채연희","store":"","address":"","lat":null,"lng":null},
    {"name":"김단아","store":"","address":"","lat":null,"lng":null},
    {"name":"손보라","store":"","address":"","lat":null,"lng":null},
    {"name":"이예지","store":"","address":"","lat":null,"lng":null},
    {"name":"고하영","store":"","address":"","lat":null,"lng":null},
    {"name":"조진양","store":"","address":"","lat":null,"lng":null},
    {"name":"나수현","store":"리젠핏스튜디오","address":"","lat":null,"lng":null},
    {"name":"류서경","store":"","address":"","lat":null,"lng":null},
    {"name":"이나영","store":"","address":"","lat":null,"lng":null},
    {"name":"임유연","store":"","address":"","lat":null,"lng":null},
    {"name":"김수진","store":"","address":"","lat":null,"lng":null},
    {"name":"이보나","store":"","address":"","lat":null,"lng":null},
    {"name":"연진희","store":"","address":"","lat":null,"lng":null},
    {"name":"정애리","store":"","address":"","lat":null,"lng":null},
    {"name":"조유경","store":"아크로필라테스&번지","address":"서울특별시 강남구 강남대로152길 11, 4층(신사동)","lat":37.5173682,"lng":127.020307},
    {"name":"나수경","store":"다이아필라테스 율량점","address":"충청북도 청주시 청원구 주성로 289, 4층(주성동)","lat":36.6700568,"lng":127.4813528},
    {"name":"박정은","store":"리움 평생교육원","address":"경기도 용인시 기흥구 동백중앙로 283, B동 705호,706호,707호(중동, 골드프라자)","lat":37.2776521,"lng":127.1535306},
    {"name":"방채하","store":"알로 필라테스","address":"경기도 화성시 동탄순환대로29길 64, 303호(영천동, 골든프라자)","lat":37.2098027,"lng":127.0587938},
    {"name":"조창희","store":"","address":"","lat":null,"lng":null},
    {"name":"정소연","store":"","address":"","lat":null,"lng":null},
    {"name":"장서윤","store":"","address":"","lat":null,"lng":null},
    {"name":"김이정","store":"","address":"","lat":null,"lng":null},
    {"name":"이지향","store":"필라테스 인센스","address":"서울특별시 성동구 독서당로 224, 3층(옥수동)","lat":37.5438939,"lng":127.0156361},
    {"name":"박세아","store":"슈에뜨필라테스","address":"서울 마포구 동교로38길 33-18(201호, 슈에뜨필라테스)","lat":37.5619311,"lng":126.9263333},
    {"name":"이현진","store":"루아프필라테스","address":"서울 동대문구 전농로24 7층 루아프필라테스","lat":37.5669453,"lng":127.0569279},
    {"name":"이광호","store":"해맑은요가","address":"서울특별시 양천구 신목로 97, 602호(목동, 정산빌딩)","lat":37.5233643,"lng":126.8749555},
    {"name":"이수진","store":"라운드필라테스","address":"의정부시 신곡동 757-2, 광장골드상가 3층, 302호 라운드필라테스","lat":37.748636,"lng":127.0643073},
    {"name":"맹장선","store":"봄앤핏","address":"경기도 이천시 구만리로144 3층 필라테스 봄앤핏","lat":37.2731391,"lng":127.4544047},
    {"name":"안다은","store":"비쥬필라테스","address":"충남 천안시 서북구 성성9로7 하나타워 607호 비쥬필라테스","lat":36.8401304,"lng":127.1312974},
    {"name":"유태근","store":"","address":"서울시 강남구 논현동 56-11 승민빌딩 2층","lat":37.5129363,"lng":127.025584},
    {"name":"박연두","store":"연두필라테스","address":"","lat":null,"lng":null},
    {"name":"박시내","store":"","address":"서울시 용산구","lat":37.5384272,"lng":126.9654442},
    {"name":"강고운","store":"","address":"","lat":null,"lng":null},
    {"name":"박예지","store":"","address":"","lat":null,"lng":null},
    {"name":"박수진","store":"","address":"","lat":null,"lng":null},
    {"name":"이정희","store":"","address":"경남 거제시 제산로 51 (수월현대힐스테이트) 102동 2002호","lat":34.8889149,"lng":128.6424567},
    {"name":"정도희","store":"필라테스맵","address":"서울 관악구 신림동 511-18 301호","lat":37.4842786,"lng":126.9149864},
    {"name":"홍하나","store":"","address":"경기 안양시 동안구 경수대로 583 평촌어바인퍼스트 201동 1704호","lat":37.3745344,"lng":126.956671},
    {"name":"윤지원","store":"펠리즈필라테스","address":"서울 용산구 한강로3가 용산시티파크아파트 101-3105","lat":37.5249286,"lng":126.9688327},
    {"name":"박진숙","store":"제이앤필라테스","address":"서울 관악구관천로38 푸리마타운204호","lat":37.4832293,"lng":126.9274606},
    {"name":"이주연","store":"피어나다필라테스","address":"서울시 은평구 불광로2길33 북한산힐스테이트1차 1107동 401호","lat":37.6125348,"lng":126.9370924},
    {"name":"최오경","store":"필라소굿","address":"제주특별자치도 제주시 지석4길11-1 파로스빌 201호","lat":33.520357,"lng":126.5801555},
    {"name":"나은영","store":"더바른몸","address":"서울 강남구 밤고개로 231 강남훼미리타운 A동 204호 The바른몸 필라테스","lat":37.4737808,"lng":127.1065697},
    {"name":"최창훈","store":"","address":"서울시 관악구 신림동 1708-3 한림아파트 103동 402호","lat":37.4890487,"lng":126.922558},
    {"name":"정은선","store":"","address":"","lat":null,"lng":null},
    {"name":"심서은","store":"","address":"강원도 원주시 지정면 가곡로 120 호반베르디움아파트 1차 805동 2301호","lat":37.382039,"lng":127.873851},
    {"name":"서혜림","store":"지아필라테스","address":"광주광역시 남구 봉선로 77 천송빌딩 4층 지아필라테스","lat":35.1266074,"lng":126.9057997},
    {"name":"최숙원","store":"","address":"경남 양산 물금읍 범어로33 효성백년가약@ 104동 101호","lat":35.3319862,"lng":129.0125986},
    {"name":"손영주","store":"위드영 필라테스","address":"서울 강남구 선릉로 18길 12 현대아파트 501-201","lat":37.4842818,"lng":127.0601356},
    {"name":"박수민","store":"","address":"강원도 원주시 무실로380 부영아파트 109동703호","lat":37.343954,"lng":127.9439782},
    {"name":"서지운","store":"","address":"인천광역시 계양구 봉오대로 744번길 4 1동 1404호","lat":37.5296315,"lng":126.7312649},
    {"name":"서서연","store":"서서연필라테스","address":"전남 여수시 예울마루로 37-53, 201호 서서연필라테스","lat":34.7462495,"lng":127.6709054},
    {"name":"김효진","store":"","address":"부산광역시 동래구 금강로 7 5층","lat":35.2125691,"lng":129.072036},
    {"name":"김소명","store":"","address":"인천광역시 남동구 선수촌공원로 26번지 9층914호","lat":37.49394,"lng":126.7257229},
    {"name":"이현지","store":"","address":"충북 제천시 의림대로40길 18","lat":37.1559702,"lng":128.2145484},
    {"name":"강민채","store":"오늘도, 요가&필라테스","address":"부산광역시 해운대구 송정중앙로21번길14(쏠데까사아파트701호)","lat":35.1835235,"lng":129.2040166},
    {"name":"김근혜","store":"","address":"대구광역시달성군 유가읍 테크노공원로77 애플타워602호","lat":35.6918497,"lng":128.4617432},
    {"name":"이나라","store":"","address":"서울시 노원구 월계로372 월계사슴아파트 101동 102호","lat":37.6299987,"lng":127.0605127},
    {"name":"백승아","store":"","address":"부산시해운대구 마린시티1로 8 마린자이 101-2805호","lat":35.159406,"lng":129.144377},
    {"name":"양한나","store":"와이핏 필라테스","address":"전남 광양시 광영의암2로 2, 101-2103","lat":34.9697972,"lng":127.590815},
    {"name":"추지영","store":"","address":"경남 거제시 수양로110 (거제아이파크2차)202동1602호","lat":34.8739024,"lng":128.6471581},
    {"name":"최선영","store":"오늘DO필라테스","address":"세종시 시청대로 500, 402동 302호(반곡동, 수루배마을 4단지)","lat":36.500441,"lng":127.314215},
    {"name":"박미소","store":"바디클리닉필라테스","address":"인천광역시 연수구 송도동 3-2 드림시티 309호 바디클리닉필라테스","lat":37.3948833,"lng":126.6501174},
    {"name":"김수영","store":"바른라인 필라테스","address":"전북 전주시 솔내로 203 2층 206호 바른라인 필라테스","lat":35.8683548,"lng":127.1270389},
    {"name":"김도연","store":"실필라테스","address":"경기도 오산시 경기대로761번길10,502동909호","lat":37.0173006,"lng":127.0714696},
    {"name":"임예슬","store":"임신으로 휴직중","address":"충북 괴산읍 읍내로 194 202동 503호","lat":36.804368,"lng":127.7865412},
    {"name":"오승원","store":"마인드휘트니스 영어교육도시점","address":"제주도 서귀포시 안덕면 서광사수동로 20번길 24 304호","lat":33.2874033,"lng":126.3042052},
    {"name":"이재은","store":"코리아요가필라테스","address":"경북 포항시 북구 양덕로50번길33 삼성쉐르빌 103동 1004호","lat":36.0846323,"lng":129.4058483},
    {"name":"한유정","store":"비긴 필라테스&요가","address":"충남당진시 송악읍 틀모시로 737 현대힐스테이트2차 116동2605호","lat":36.8903738,"lng":126.6939875},
    {"name":"김지혜","store":"필라테스 벨","address":"전남 순천시 해룡면 신대로66 214동 203호","lat":34.9258908,"lng":127.5525339},
    {"name":"김유현","store":"맥라인필라테스","address":"경기도 성남시 분당구 성남대로393 (두산위브파빌리온) b동 724호","lat":37.3716379,"lng":127.1072061},
    {"name":"김보미","store":"","address":"경기 의왕시 오전동 모락로89-15 해모로 107동 302호","lat":37.3640936,"lng":126.9664033},
    {"name":"김혜윰","store":"선필라테스","address":"서울 서대문구 연희로11다길 10 1층 선필라테스","lat":37.5672522,"lng":126.9276832},
    {"name":"이예지","store":"오늘도 필라테스","address":"인천 연수구 앵고개로104번길 4 준빌딩3층 오늘도필라테스","lat":37.4127965,"lng":126.6569313},
    {"name":"김수민","store":"","address":"인천 미추홀구 주안동 300-23","lat":37.4573299,"lng":126.6885435},
    {"name":"임진실","store":"블라썸 필라테스","address":"경기도 오산시 원동 391-1번지 6층 블라썸필라테스","lat":37.1383777,"lng":127.0738459},
    {"name":"조벼리","store":"데이 원 필라테스","address":"경기 고양시 덕양구 동송로61 1동 302호 데이 원 필라테스","lat":37.635198,"lng":126.7186056},
    {"name":"김용원","store":"","address":"서울 강남구 선릉로190길 72 연세리버빌 602호","lat":37.5287026,"lng":127.0474229},
    {"name":"이서정","store":"","address":"인천광역시 연수구 랜드마크로19 SK뷰 109동 401호","lat":37.400886,"lng":126.6386},
    {"name":"노윤서","store":"","address":"서울시 강동구 아리수로93나길60 골드프라자 3층 NK번지필라테스","lat":37.5603879,"lng":127.1498654},
    {"name":"이혜연","store":"","address":"경기도남양주시진접읍부평로32 센트레빌102동1604호","lat":37.7390616,"lng":127.1989376},
    {"name":"김예솔","store":"힐즈필라테스","address":"서울특별시 서초구 서래로6길 7, 4층 힐즈필라테스","lat":37.4977718,"lng":126.9989656},
    {"name":"고요히","store":"","address":"경기도 화성시 동탄반석로 231 153동 2502호","lat":37.2101228,"lng":127.0735353},
    {"name":"남효수","store":"","address":"경기도 안양시 관양동 1689 강남프린스빌딩 307호","lat":37.4043732,"lng":126.9624714},
    {"name":"김소현","store":"필라드핏","address":"서울시 동대문구 무학로 69 e청계센트럴포레상가 2층 201호 필라드핏","lat":37.5704889,"lng":127.0302118},
    {"name":"백인","store":"","address":"","lat":null,"lng":null},
    {"name":"남수민","store":"","address":"","lat":null,"lng":null},
    {"name":"강지은","store":"","address":"","lat":null,"lng":null},
    {"name":"이민영","store":"","address":"","lat":null,"lng":null}]
}
